name,state,lon,lat,website
Great Plains Reservoir System,CO,-102.7,38.03333,https://gis.audubon.org/portal/apps/dashboards/1742bc47f980490da9c23e23dc4d5e86#site=495
Craters of the Moon National Monument and Preserve,ID,-113.53333,43.4,https://gis.audubon.org/portal/apps/dashboards/1742bc47f980490da9c23e23dc4d5e86#site=549
Lewis & Clark and Julie Butler Hansen National Wildlife Refuges,OR,-123.6316,46.2239,https://gis.audubon.org/portal/apps/dashboards/1742bc47f980490da9c23e23dc4d5e86#site=2498
Umatilla National Wildlife Refuge,OR,-119.6035,45.9044,https://gis.audubon.org/portal/apps/dashboards/1742bc47f980490da9c23e23dc4d5e86#site=2566
American Falls Reservoir,ID,-112.82556,42.84333,https://gis.audubon.org/portal/apps/dashboards/1742bc47f980490da9c23e23dc4d5e86#site=3
Hebgen Lake,MT,-111.1848,44.7581,https://gis.audubon.org/portal/apps/dashboards/1742bc47f980490da9c23e23dc4d5e86#site=2786
Siltcoos Lake,OR,-124.0918,43.8735,https://gis.audubon.org/portal/apps/dashboards/1742bc47f980490da9c23e23dc4d5e86#site=2519
Cape Disappointment,WA,-124.08333,46.28333,https://gis.audubon.org/portal/apps/dashboards/1742bc47f980490da9c23e23dc4d5e86#site=220
Balcones Canyonlands National Wildlife Refuge,TX,-98.07,30.6,https://gis.audubon.org/portal/apps/dashboards/1742bc47f980490da9c23e23dc4d5e86#site=3339
Lower San Pedro River IBA,AZ,-110.5515795,32.58726705,https://gis.audubon.org/portal/apps/dashboards/1742bc47f980490da9c23e23dc4d5e86#site=3040
Agua Fria NM Riparian Corridors IBA,AZ,-112.0721462,34.21657677,https://gis.audubon.org/portal/apps/dashboards/1742bc47f980490da9c23e23dc4d5e86#site=899
Bear River Bay UT02,UT,-112.25,41.41667,https://gis.audubon.org/portal/apps/dashboards/1742bc47f980490da9c23e23dc4d5e86#site=1965
Gilbert Bay/South Arm UT05,UT,-112.5,41,https://gis.audubon.org/portal/apps/dashboards/1742bc47f980490da9c23e23dc4d5e86#site=2334
Wallowa Mountains,OR,-117.3177,45.1999,https://gis.audubon.org/portal/apps/dashboards/1742bc47f980490da9c23e23dc4d5e86#site=2569
Protection Island,WA,-122.91667,48.13333,https://gis.audubon.org/portal/apps/dashboards/1742bc47f980490da9c23e23dc4d5e86#site=288
Mima Prairie,WA,-123.05,46.86667,https://gis.audubon.org/portal/apps/dashboards/1742bc47f980490da9c23e23dc4d5e86#site=283
Fort Simcoe,WA,-120.83333,46.35,https://gis.audubon.org/portal/apps/dashboards/1742bc47f980490da9c23e23dc4d5e86#site=349
Cibola NWR IBA,AZ,-114.6907216,33.30420832,https://gis.audubon.org/portal/apps/dashboards/1742bc47f980490da9c23e23dc4d5e86#site=3466
Fort Hood,TX,-97.78167,31.12778,https://gis.audubon.org/portal/apps/dashboards/1742bc47f980490da9c23e23dc4d5e86#site=3337
Malheur National Wildlife Refuge,OR,-118.8441,43.2657,https://gis.audubon.org/portal/apps/dashboards/1742bc47f980490da9c23e23dc4d5e86#site=2501
Columbia Hills,WA,-120.43333,45.71667,https://gis.audubon.org/portal/apps/dashboards/1742bc47f980490da9c23e23dc4d5e86#site=300
Hart Mountain National Antelope Refuge,OR,-119.6232,42.5348,https://gis.audubon.org/portal/apps/dashboards/1742bc47f980490da9c23e23dc4d5e86#site=2489
Wenas Basin/ Clemans Mountain,WA,-120.8,46.85,https://gis.audubon.org/portal/apps/dashboards/1742bc47f980490da9c23e23dc4d5e86#site=298
Indian-Marrowstone Island/ Oak Bay,WA,-122.71667,48.05,https://gis.audubon.org/portal/apps/dashboards/1742bc47f980490da9c23e23dc4d5e86#site=281
Chiricahua Mountians IBA,AZ,-109.3069946,31.83694563,https://gis.audubon.org/portal/apps/dashboards/1742bc47f980490da9c23e23dc4d5e86#site=2286
Ridgefield National Wildlife Refuge,WA,-122.76667,45.81667,https://gis.audubon.org/portal/apps/dashboards/1742bc47f980490da9c23e23dc4d5e86#site=291
Bottle Beach,WA,-124.03333,46.9,https://gis.audubon.org/portal/apps/dashboards/1742bc47f980490da9c23e23dc4d5e86#site=218
Calispell Lake,WA,-117.2,48.26667,https://gis.audubon.org/portal/apps/dashboards/1742bc47f980490da9c23e23dc4d5e86#site=299
North Willapa Bay (Willapa River Estuary),WA,-123.81667,46.51667,https://gis.audubon.org/portal/apps/dashboards/1742bc47f980490da9c23e23dc4d5e86#site=273
Totten Inlet,WA,-123,47.15,https://gis.audubon.org/portal/apps/dashboards/1742bc47f980490da9c23e23dc4d5e86#site=292
South Willapa Bay (Shoalwater Bay),WA,-124.03333,46.68333,https://gis.audubon.org/portal/apps/dashboards/1742bc47f980490da9c23e23dc4d5e86#site=272
Tieton River Corridor,WA,-121.08333,46.68333,https://gis.audubon.org/portal/apps/dashboards/1742bc47f980490da9c23e23dc4d5e86#site=296
Walla Walla River Delta,WA,-118.9,46.06667,https://gis.audubon.org/portal/apps/dashboards/1742bc47f980490da9c23e23dc4d5e86#site=357
Toppenish Creek/ Yakima River Oxbows,WA,-120.43333,46.31667,https://gis.audubon.org/portal/apps/dashboards/1742bc47f980490da9c23e23dc4d5e86#site=354
Yakima Canyon,WA,-120.46667,46.83333,https://gis.audubon.org/portal/apps/dashboards/1742bc47f980490da9c23e23dc4d5e86#site=358
North Potholes Preserve,WA,-119.31667,47.08333,https://gis.audubon.org/portal/apps/dashboards/1742bc47f980490da9c23e23dc4d5e86#site=351
Quilomene-Colockum Wildlife Area,WA,-120.13333,47.1,https://gis.audubon.org/portal/apps/dashboards/1742bc47f980490da9c23e23dc4d5e86#site=353
Yakima Training Center,WA,-120.16667,46.75,https://gis.audubon.org/portal/apps/dashboards/1742bc47f980490da9c23e23dc4d5e86#site=360
Fruitgrowers Reservoir,CO,-107.93333,38.08333,https://gis.audubon.org/portal/apps/dashboards/1742bc47f980490da9c23e23dc4d5e86#site=416
Gunnison Basin,CO,-106.50331,38.65142,https://gis.audubon.org/portal/apps/dashboards/1742bc47f980490da9c23e23dc4d5e86#site=417
City of Rocks National Reserve,ID,-113.7,42.08333,https://gis.audubon.org/portal/apps/dashboards/1742bc47f980490da9c23e23dc4d5e86#site=546
Blanca Wetlands,CO,-105.71667,37.53333,https://gis.audubon.org/portal/apps/dashboards/1742bc47f980490da9c23e23dc4d5e86#site=463
Camas Prairie Centennial Marsh Wildlife Management Area,ID,-115,43.5,https://gis.audubon.org/portal/apps/dashboards/1742bc47f980490da9c23e23dc4d5e86#site=542
Rio Grande and Home Lake State Wildlife Areas,CO,-106.08333,37.56667,https://gis.audubon.org/portal/apps/dashboards/1742bc47f980490da9c23e23dc4d5e86#site=461
San Luis Lakes State Park and Wildlife Area,CO,-105.71667,37.66667,https://gis.audubon.org/portal/apps/dashboards/1742bc47f980490da9c23e23dc4d5e86#site=460
Walden Reservoir,CO,-106.28333,40.71667,https://gis.audubon.org/portal/apps/dashboards/1742bc47f980490da9c23e23dc4d5e86#site=471
Mesa Verde National Park,CO,-108.45,37.25,https://gis.audubon.org/portal/apps/dashboards/1742bc47f980490da9c23e23dc4d5e86#site=466
Canyons of the Ancients National Monument,CO,-108.71667,37.33333,https://gis.audubon.org/portal/apps/dashboards/1742bc47f980490da9c23e23dc4d5e86#site=465
Highline State Park,CO,-108.83333,39.28333,https://gis.audubon.org/portal/apps/dashboards/1742bc47f980490da9c23e23dc4d5e86#site=476
Bonny Lake State Park and South Republican Management Area,CO,-102.1921,39.6161,https://gis.audubon.org/portal/apps/dashboards/1742bc47f980490da9c23e23dc4d5e86#site=483
Marbled Murrelet IBA,OR,-124.067542,44.21046124,https://gis.audubon.org/portal/apps/dashboards/1742bc47f980490da9c23e23dc4d5e86#site=3470
Manitou Lake (and Manitou Experimental Forest Flammulated Owl Study Area),CO,-105.08333,39.08333,https://gis.audubon.org/portal/apps/dashboards/1742bc47f980490da9c23e23dc4d5e86#site=501
John Martin Reservoir State Wildlife Area,CO,-103,38.08333,https://gis.audubon.org/portal/apps/dashboards/1742bc47f980490da9c23e23dc4d5e86#site=496
Adobe Creek Reservoir,CO,-103.25,38.25,https://gis.audubon.org/portal/apps/dashboards/1742bc47f980490da9c23e23dc4d5e86#site=497
Aiken Canyon Preserve,CO,-104.88333,38.61667,https://gis.audubon.org/portal/apps/dashboards/1742bc47f980490da9c23e23dc4d5e86#site=499
Camas National Wildlife Refuge,ID,-112.25,43.93333,https://gis.audubon.org/portal/apps/dashboards/1742bc47f980490da9c23e23dc4d5e86#site=541
Boise Ridge,ID,-116.05,43.6,https://gis.audubon.org/portal/apps/dashboards/1742bc47f980490da9c23e23dc4d5e86#site=538
Fort Boise Wildlife Management Area,ID,-117,43.83333,https://gis.audubon.org/portal/apps/dashboards/1742bc47f980490da9c23e23dc4d5e86#site=555
Grays Lake National Wildlife Refuge,ID,-111.43333,43.05,https://gis.audubon.org/portal/apps/dashboards/1742bc47f980490da9c23e23dc4d5e86#site=556
Harriman Wildlife Refuge,ID,-111.46667,44.33333,https://gis.audubon.org/portal/apps/dashboards/1742bc47f980490da9c23e23dc4d5e86#site=557
Heyburn State Park,ID,-116.7071,47.3561,https://gis.audubon.org/portal/apps/dashboards/1742bc47f980490da9c23e23dc4d5e86#site=559
Edness Kimball Wilkens State Park,WY,-106.3125,42.86667,https://gis.audubon.org/portal/apps/dashboards/1742bc47f980490da9c23e23dc4d5e86#site=892
Mogollon Rim Snow Melt Draws IBA,AZ,-111.1334676,34.44309969,https://gis.audubon.org/portal/apps/dashboards/1742bc47f980490da9c23e23dc4d5e86#site=1233
Kootenai National Wildlife Refuge,ID,-116.4368,48.6816,https://gis.audubon.org/portal/apps/dashboards/1742bc47f980490da9c23e23dc4d5e86#site=587
Market Lake Wildlife Management Area,ID,-112.13333,43.76667,https://gis.audubon.org/portal/apps/dashboards/1742bc47f980490da9c23e23dc4d5e86#site=590
Pawnee National Grassland,CO,-103.6,40.61667,https://gis.audubon.org/portal/apps/dashboards/1742bc47f980490da9c23e23dc4d5e86#site=467
Minidoka National Wildlife Refuge,ID,-113.31667,42.66667,https://gis.audubon.org/portal/apps/dashboards/1742bc47f980490da9c23e23dc4d5e86#site=594
Mink Creek/ Cherry Springs Nature Area,ID,-112.38333,42.75,https://gis.audubon.org/portal/apps/dashboards/1742bc47f980490da9c23e23dc4d5e86#site=595
Wee Thump Joshua Tree Forest,NV,-115.08,35.49,https://gis.audubon.org/portal/apps/dashboards/1742bc47f980490da9c23e23dc4d5e86#site=938
Silver Creek Preserve,ID,-114.0172,43.2837,https://gis.audubon.org/portal/apps/dashboards/1742bc47f980490da9c23e23dc4d5e86#site=659
Oasis Valley,NV,-116.71,36.95,https://gis.audubon.org/portal/apps/dashboards/1742bc47f980490da9c23e23dc4d5e86#site=940
Sheldon NWR,NV,-119.22,41.81,https://gis.audubon.org/portal/apps/dashboards/1742bc47f980490da9c23e23dc4d5e86#site=944
Seedskadee National Wildlife Refuge,WY,-109.83333,41.83333,https://gis.audubon.org/portal/apps/dashboards/1742bc47f980490da9c23e23dc4d5e86#site=881
Yellowstone National Park,WY,-110.58333,44.58333,https://gis.audubon.org/portal/apps/dashboards/1742bc47f980490da9c23e23dc4d5e86#site=879
Atascosa Highlands IBA,AZ,-111.1946661,31.47185612,https://gis.audubon.org/portal/apps/dashboards/1742bc47f980490da9c23e23dc4d5e86#site=2289
Virgin River,NV,-114.27,36.69,https://gis.audubon.org/portal/apps/dashboards/1742bc47f980490da9c23e23dc4d5e86#site=936
Wellington-Pine Grove Hills,NV,-119.22,38.6,https://gis.audubon.org/portal/apps/dashboards/1742bc47f980490da9c23e23dc4d5e86#site=937
Carson Valley,NV,-119.76667,38.98333,https://gis.audubon.org/portal/apps/dashboards/1742bc47f980490da9c23e23dc4d5e86#site=946
Ruby Lake NWR,NV,-115.46666,40.16667,https://gis.audubon.org/portal/apps/dashboards/1742bc47f980490da9c23e23dc4d5e86#site=947
Lahontan Valley Wetlands,NV,-118.46666,39.23333,https://gis.audubon.org/portal/apps/dashboards/1742bc47f980490da9c23e23dc4d5e86#site=973
Goshute Mountains,NV,-114.26666,40.41667,https://gis.audubon.org/portal/apps/dashboards/1742bc47f980490da9c23e23dc4d5e86#site=971
Pyramid Lake,NV,-119.58333,40,https://gis.audubon.org/portal/apps/dashboards/1742bc47f980490da9c23e23dc4d5e86#site=974
Great Basin National Park,NV,-114.3077,38.989,https://gis.audubon.org/portal/apps/dashboards/1742bc47f980490da9c23e23dc4d5e86#site=1108
Pahranagat Valley Complex,NV,-115.11667,37.16667,https://gis.audubon.org/portal/apps/dashboards/1742bc47f980490da9c23e23dc4d5e86#site=976
Ash Meadows National Wildlife Refuge,NV,-116.33333,36.41667,https://gis.audubon.org/portal/apps/dashboards/1742bc47f980490da9c23e23dc4d5e86#site=977
Moapa Valley,NV,-114.71,36.72,https://gis.audubon.org/portal/apps/dashboards/1742bc47f980490da9c23e23dc4d5e86#site=980
Catclaw Washes Complex,NV,-114.8,35.36,https://gis.audubon.org/portal/apps/dashboards/1742bc47f980490da9c23e23dc4d5e86#site=981
Lake Mead NRA,NV,-114.3753,36.5003,https://gis.audubon.org/portal/apps/dashboards/1742bc47f980490da9c23e23dc4d5e86#site=982
Swan Lake,NV,-119.8425,39.6583,https://gis.audubon.org/portal/apps/dashboards/1742bc47f980490da9c23e23dc4d5e86#site=1107
Fish Springs National Wildlife Refuge UT16,UT,-113.38333,39.83333,https://gis.audubon.org/portal/apps/dashboards/1742bc47f980490da9c23e23dc4d5e86#site=2343
Blackjack Peninsula of Aransas National Wildlife Refuge,TX,-96.85,28.23333,https://gis.audubon.org/portal/apps/dashboards/1742bc47f980490da9c23e23dc4d5e86#site=1564
Port Bolivar Bird Sanctuaries - Bolivar Flats,TX,-94.73333,29.36667,https://gis.audubon.org/portal/apps/dashboards/1742bc47f980490da9c23e23dc4d5e86#site=1567
Bowerman Basin,WA,-123.93333,46.96667,https://gis.audubon.org/portal/apps/dashboards/1742bc47f980490da9c23e23dc4d5e86#site=219
Cheyenne Bottoms Preserve and Wildlife Area,KS,-98.43,38.3,https://gis.audubon.org/portal/apps/dashboards/1742bc47f980490da9c23e23dc4d5e86#site=2622
Deseret Land and Livestock Ranch UT10,UT,-111.45,41.307,https://gis.audubon.org/portal/apps/dashboards/1742bc47f980490da9c23e23dc4d5e86#site=1968
Cimarron National Grassland,KS,-101.85,37.12,https://gis.audubon.org/portal/apps/dashboards/1742bc47f980490da9c23e23dc4d5e86#site=2623
Missouri National Recreational River,NE,-97.13693,42.78307,https://gis.audubon.org/portal/apps/dashboards/1742bc47f980490da9c23e23dc4d5e86#site=2132
Toiyabe Range,NV,-117.2897,38.9967,https://gis.audubon.org/portal/apps/dashboards/1742bc47f980490da9c23e23dc4d5e86#site=2214
Grand Teton National Park,WY,-110.66667,43.83333,https://gis.audubon.org/portal/apps/dashboards/1742bc47f980490da9c23e23dc4d5e86#site=2095
Commissary Ridge Raptor Migration Route,WY,-110.76389,42.51389,https://gis.audubon.org/portal/apps/dashboards/1742bc47f980490da9c23e23dc4d5e86#site=2080
North Platte River Valley,NE,-101.8258,41.24813,https://gis.audubon.org/portal/apps/dashboards/1742bc47f980490da9c23e23dc4d5e86#site=2098
Indian Cave State Park,NE,-95.56964,40.264,https://gis.audubon.org/portal/apps/dashboards/1742bc47f980490da9c23e23dc4d5e86#site=2101
Valentine National Wildlife Refuge,NE,-100.60664,42.53416,https://gis.audubon.org/portal/apps/dashboards/1742bc47f980490da9c23e23dc4d5e86#site=2130
Ouray National Wildlife Refuge UT13,UT,-109.61667,40.15,https://gis.audubon.org/portal/apps/dashboards/1742bc47f980490da9c23e23dc4d5e86#site=2367
Ruby Mountains,NV,-115.3961,40.5738,https://gis.audubon.org/portal/apps/dashboards/1742bc47f980490da9c23e23dc4d5e86#site=2219
Fremont River - Capitol Reef National Park UT18,UT,-111.25,38.286,https://gis.audubon.org/portal/apps/dashboards/1742bc47f980490da9c23e23dc4d5e86#site=2363
Ogden Bay UT03,UT,-112.25,41.16667,https://gis.audubon.org/portal/apps/dashboards/1742bc47f980490da9c23e23dc4d5e86#site=2336
Upper Strawberry Watershed UT12,UT,-111.169,40.239,https://gis.audubon.org/portal/apps/dashboards/1742bc47f980490da9c23e23dc4d5e86#site=2369
Farmington Bay UT04,UT,-112.083,41,https://gis.audubon.org/portal/apps/dashboards/1742bc47f980490da9c23e23dc4d5e86#site=2333
Cold Springs National Wildlife Refuge,OR,-119.1556,45.8636,https://gis.audubon.org/portal/apps/dashboards/1742bc47f980490da9c23e23dc4d5e86#site=2476
Boardman Grasslands,OR,-119.6931,45.6857,https://gis.audubon.org/portal/apps/dashboards/1742bc47f980490da9c23e23dc4d5e86#site=2440
Cascade-Siskiyou National Monument,OR,-122.5606,42.0307,https://gis.audubon.org/portal/apps/dashboards/1742bc47f980490da9c23e23dc4d5e86#site=2455
Little Sandy Landscape,WY,-108.86666,42.16667,https://gis.audubon.org/portal/apps/dashboards/1742bc47f980490da9c23e23dc4d5e86#site=2607
Fern Ridge Reservoir Wildlife Area,OR,-123.2932,44.0897,https://gis.audubon.org/portal/apps/dashboards/1742bc47f980490da9c23e23dc4d5e86#site=2484
Siuslaw River Estuary,OR,-124.1021,43.9663,https://gis.audubon.org/portal/apps/dashboards/1742bc47f980490da9c23e23dc4d5e86#site=2527
Bear Canyon,MT,-108.5333,45.0833,https://gis.audubon.org/portal/apps/dashboards/1742bc47f980490da9c23e23dc4d5e86#site=2939
Ladd Marsh Wildlife Area,OR,-118.0346,45.2616,https://gis.audubon.org/portal/apps/dashboards/1742bc47f980490da9c23e23dc4d5e86#site=2496
Green Ridge,OR,-121.6055,44.5362,https://gis.audubon.org/portal/apps/dashboards/1742bc47f980490da9c23e23dc4d5e86#site=2488
Oregon Caves National Monument/Bigelow Lakes,OR,-123.3894,42.0932,https://gis.audubon.org/portal/apps/dashboards/1742bc47f980490da9c23e23dc4d5e86#site=2508
Klamath Marsh National Wildlife Refuge,OR,-121.7221,42.8803,https://gis.audubon.org/portal/apps/dashboards/1742bc47f980490da9c23e23dc4d5e86#site=2495
Oregon Canyon and Trout Creek Mountain Woodlands,OR,-118.1819,42.0914,https://gis.audubon.org/portal/apps/dashboards/1742bc47f980490da9c23e23dc4d5e86#site=2507
Mount Pisgah (Howard Buford Recreation Area),OR,-122.9645,44.0057,https://gis.audubon.org/portal/apps/dashboards/1742bc47f980490da9c23e23dc4d5e86#site=2502
Nestucca Bay NWR,OR,-123.9527,45.1826,https://gis.audubon.org/portal/apps/dashboards/1742bc47f980490da9c23e23dc4d5e86#site=2504
New River,OR,-124.4657,42.9719,https://gis.audubon.org/portal/apps/dashboards/1742bc47f980490da9c23e23dc4d5e86#site=2506
Carson Range,NV,-119.909,39.2625,https://gis.audubon.org/portal/apps/dashboards/1742bc47f980490da9c23e23dc4d5e86#site=2211
Lytle Preserve UT19,UT,-114.022,37.143,https://gis.audubon.org/portal/apps/dashboards/1742bc47f980490da9c23e23dc4d5e86#site=2365
Salmon River Estuary,OR,-123.9875,45.035,https://gis.audubon.org/portal/apps/dashboards/1742bc47f980490da9c23e23dc4d5e86#site=2514
Lake Abert,OR,-120.2333,42.6263,https://gis.audubon.org/portal/apps/dashboards/1742bc47f980490da9c23e23dc4d5e86#site=2497
Siskiyou Crest,OR,-122.7873,42.0648,https://gis.audubon.org/portal/apps/dashboards/1742bc47f980490da9c23e23dc4d5e86#site=2526
South Park Wildlife Habitat Management Area,WY,-110,43,https://gis.audubon.org/portal/apps/dashboards/1742bc47f980490da9c23e23dc4d5e86#site=2695
Steens Mountain,OR,-118.5629,42.6865,https://gis.audubon.org/portal/apps/dashboards/1742bc47f980490da9c23e23dc4d5e86#site=2535
William L. Finley National Wildlife Refuge,OR,-123.3248,44.4096,https://gis.audubon.org/portal/apps/dashboards/1742bc47f980490da9c23e23dc4d5e86#site=2582
Umpqua River Estuary,OR,-124.1543,43.7284,https://gis.audubon.org/portal/apps/dashboards/1742bc47f980490da9c23e23dc4d5e86#site=2567
Upper Klamath Lake NWR,OR,-121.8825,42.3982,https://gis.audubon.org/portal/apps/dashboards/1742bc47f980490da9c23e23dc4d5e86#site=2568
Tillamook Bay,OR,-123.9165,45.5129,https://gis.audubon.org/portal/apps/dashboards/1742bc47f980490da9c23e23dc4d5e86#site=2562
Summer Lake WMA,OR,-120.7467,42.8249,https://gis.audubon.org/portal/apps/dashboards/1742bc47f980490da9c23e23dc4d5e86#site=2536
Table Rocks,OR,-122.9119,42.4766,https://gis.audubon.org/portal/apps/dashboards/1742bc47f980490da9c23e23dc4d5e86#site=2559
Tahkenitch Creek Estuary,OR,-124.1658,43.8073,https://gis.audubon.org/portal/apps/dashboards/1742bc47f980490da9c23e23dc4d5e86#site=2560
Quivira National Wildlife Refuge,KS,-98.3,38.08,https://gis.audubon.org/portal/apps/dashboards/1742bc47f980490da9c23e23dc4d5e86#site=2630
Yaquina Bay,OR,-124.0382,44.6204,https://gis.audubon.org/portal/apps/dashboards/1742bc47f980490da9c23e23dc4d5e86#site=2583
Coos Estuary,OR,-124.2298,43.4293,https://gis.audubon.org/portal/apps/dashboards/1742bc47f980490da9c23e23dc4d5e86#site=2478
Laramie Plains Lakes Complex,WY,-105.55,41,https://gis.audubon.org/portal/apps/dashboards/1742bc47f980490da9c23e23dc4d5e86#site=2605
Salt Plains National Wildlife Refuge,OK,-98.21,36.75,https://gis.audubon.org/portal/apps/dashboards/1742bc47f980490da9c23e23dc4d5e86#site=2632
Tallgrass Prairie Preserve,OK,-96.43,36.8,https://gis.audubon.org/portal/apps/dashboards/1742bc47f980490da9c23e23dc4d5e86#site=2637
Boundary Creek WMA,ID,-116.56639,48.97889,https://gis.audubon.org/portal/apps/dashboards/1742bc47f980490da9c23e23dc4d5e86#site=2643
Red Desert,WY,-108,41,https://gis.audubon.org/portal/apps/dashboards/1742bc47f980490da9c23e23dc4d5e86#site=2698
Snowy Range Peaks,WY,-106,41,https://gis.audubon.org/portal/apps/dashboards/1742bc47f980490da9c23e23dc4d5e86#site=2699
Ninemile Draw,WY,-108,42,https://gis.audubon.org/portal/apps/dashboards/1742bc47f980490da9c23e23dc4d5e86#site=2700
Lake Helena,MT,-111.9306,46.6967,https://gis.audubon.org/portal/apps/dashboards/1742bc47f980490da9c23e23dc4d5e86#site=2947
Appleton-Whittell Research Ranch (NAS) IBA,AZ,-110.5048605,31.58722316,https://gis.audubon.org/portal/apps/dashboards/1742bc47f980490da9c23e23dc4d5e86#site=1230
Wickiup Reservoir,OR,-121.7257,43.6784,https://gis.audubon.org/portal/apps/dashboards/1742bc47f980490da9c23e23dc4d5e86#site=2581
Bitterroot River,MT,-114.078,46.632,https://gis.audubon.org/portal/apps/dashboards/1742bc47f980490da9c23e23dc4d5e86#site=2821
Maxwell National Wildlife Refuge,NM,-104.5867,36.56944,https://gis.audubon.org/portal/apps/dashboards/1742bc47f980490da9c23e23dc4d5e86#site=599
Lake Cascade,ID,-116.08333,44.58333,https://gis.audubon.org/portal/apps/dashboards/1742bc47f980490da9c23e23dc4d5e86#site=2642
Canyon Ferry Wildlife Management Area,MT,-111.5043,46.3554,https://gis.audubon.org/portal/apps/dashboards/1742bc47f980490da9c23e23dc4d5e86#site=2942
Arivaca Cienaga/Arivaca Creek IBA,AZ,-111.319822,31.56912087,https://gis.audubon.org/portal/apps/dashboards/1742bc47f980490da9c23e23dc4d5e86#site=898
Bowdoin National Wildlife Refuge,MT,-107.6828,48.4051,https://gis.audubon.org/portal/apps/dashboards/1742bc47f980490da9c23e23dc4d5e86#site=2930
Red Rock Lakes National Wildlife Refuge,MT,-111.75,44.633,https://gis.audubon.org/portal/apps/dashboards/1742bc47f980490da9c23e23dc4d5e86#site=2931
Pablo National Wildlife Refuge,MT,-114.15,47.6333,https://gis.audubon.org/portal/apps/dashboards/1742bc47f980490da9c23e23dc4d5e86#site=2953
South Hills,ID,-114.28333,42.18333,https://gis.audubon.org/portal/apps/dashboards/1742bc47f980490da9c23e23dc4d5e86#site=2770
Medicine Lake National Wildlife Refuge,MT,-104.4166,48.4666,https://gis.audubon.org/portal/apps/dashboards/1742bc47f980490da9c23e23dc4d5e86#site=2933
Charles M. Russell National Wildlife Refuge,MT,-107.25,47.75,https://gis.audubon.org/portal/apps/dashboards/1742bc47f980490da9c23e23dc4d5e86#site=2934
Missouri Headwaters State Park,MT,-111.5008,45.9283,https://gis.audubon.org/portal/apps/dashboards/1742bc47f980490da9c23e23dc4d5e86#site=2948
Ninepipe National Wildlife Refuge,MT,-114.1186,47.4424,https://gis.audubon.org/portal/apps/dashboards/1742bc47f980490da9c23e23dc4d5e86#site=2952
Wichita Mountains National Wildlife Refuge,OK,-98.69,34.74,https://gis.audubon.org/portal/apps/dashboards/1742bc47f980490da9c23e23dc4d5e86#site=3005
Powder/Carter Sage-steppe,MT,-104.5,45.4,https://gis.audubon.org/portal/apps/dashboards/1742bc47f980490da9c23e23dc4d5e86#site=3065
Leahy Junction - Moses Coulee,WA,-119.625,47.68194,https://gis.audubon.org/portal/apps/dashboards/1742bc47f980490da9c23e23dc4d5e86#site=3208
Conboy Lake,WA,-121.2808,45.9714,https://gis.audubon.org/portal/apps/dashboards/1742bc47f980490da9c23e23dc4d5e86#site=3198
Sprague Lake,WA,-118.0619,47.2592,https://gis.audubon.org/portal/apps/dashboards/1742bc47f980490da9c23e23dc4d5e86#site=3205
Banks Lake Complex,WA,-119.26222,47.74417,https://gis.audubon.org/portal/apps/dashboards/1742bc47f980490da9c23e23dc4d5e86#site=3199
Umatilla,WA,-119.68777,45.875,https://gis.audubon.org/portal/apps/dashboards/1742bc47f980490da9c23e23dc4d5e86#site=3206
Bridger Sage-steppe,MT,-108.9,45.2,https://gis.audubon.org/portal/apps/dashboards/1742bc47f980490da9c23e23dc4d5e86#site=3302
Henry's Lake,ID,-111.399,44.637,https://gis.audubon.org/portal/apps/dashboards/1742bc47f980490da9c23e23dc4d5e86#site=3257
Emory Pass,NM,-107.75,32.91667,https://gis.audubon.org/portal/apps/dashboards/1742bc47f980490da9c23e23dc4d5e86#site=1542
National Bison Range,MT,-114.2182,47.3294,https://gis.audubon.org/portal/apps/dashboards/1742bc47f980490da9c23e23dc4d5e86#site=2951
Glacier National Park,MT,-113.7172,48.6966,https://gis.audubon.org/portal/apps/dashboards/1742bc47f980490da9c23e23dc4d5e86#site=2954
Spring Park Reservoir,CO,-107.08639,39.44306,https://gis.audubon.org/portal/apps/dashboards/1742bc47f980490da9c23e23dc4d5e86#site=3317
Balcones Canyonlands Preserve,TX,-97.84,30.37,https://gis.audubon.org/portal/apps/dashboards/1742bc47f980490da9c23e23dc4d5e86#site=3308
Beaverhead Sage-steppe,MT,-113,45.2,https://gis.audubon.org/portal/apps/dashboards/1742bc47f980490da9c23e23dc4d5e86#site=3301
Glaciated Prairie Sage-steppe,MT,-107.7,48,https://gis.audubon.org/portal/apps/dashboards/1742bc47f980490da9c23e23dc4d5e86#site=3304
Mussellshell Sage-steppe,MT,-108.5,47.1,https://gis.audubon.org/portal/apps/dashboards/1742bc47f980490da9c23e23dc4d5e86#site=3303
Olympic Continental Shelf,WA,-124.76666,47.85,https://gis.audubon.org/portal/apps/dashboards/1742bc47f980490da9c23e23dc4d5e86#site=3348
Fort Lewis,WA,-122.58333,47.00139,https://gis.audubon.org/portal/apps/dashboards/1742bc47f980490da9c23e23dc4d5e86#site=3356
Fort Niobrara National Wildlife Refuge,NE,-100.455,42.8862,https://gis.audubon.org/portal/apps/dashboards/1742bc47f980490da9c23e23dc4d5e86#site=3729
Zion National Park UT20,UT,-112.97417,37.2175,https://gis.audubon.org/portal/apps/dashboards/1742bc47f980490da9c23e23dc4d5e86#site=3400
Marble Canyon/Vermilion Cliffs IBA,AZ,-111.7509712,36.72450005,https://gis.audubon.org/portal/apps/dashboards/1742bc47f980490da9c23e23dc4d5e86#site=2287
Estancia Valley,NM,-106.05,34.75,https://gis.audubon.org/portal/apps/dashboards/1742bc47f980490da9c23e23dc4d5e86#site=569
Spring Creek Prairie Audubon Center,NE,-96.85,40.69167,https://gis.audubon.org/portal/apps/dashboards/1742bc47f980490da9c23e23dc4d5e86#site=2020
Lewis & Clark Lake and Gavin Point Dam,NE,-97.52087,42.84337,https://gis.audubon.org/portal/apps/dashboards/1742bc47f980490da9c23e23dc4d5e86#site=3730
Brantley Lake State Park,NM,-104.3808,32.5439,https://gis.audubon.org/portal/apps/dashboards/1742bc47f980490da9c23e23dc4d5e86#site=608
Santa Rita Mountains IBA,AZ,-110.8021689,31.71918396,https://gis.audubon.org/portal/apps/dashboards/1742bc47f980490da9c23e23dc4d5e86#site=903
Harrison Reservoir,MT,-111.70194,45.69917,https://gis.audubon.org/portal/apps/dashboards/1742bc47f980490da9c23e23dc4d5e86#site=3848
Zumwalt Prarie,OR,-116.94027,45.50278,https://gis.audubon.org/portal/apps/dashboards/1742bc47f980490da9c23e23dc4d5e86#site=3712
Melrose Migrant Trap,NM,-103.79935,34.43415,https://gis.audubon.org/portal/apps/dashboards/1742bc47f980490da9c23e23dc4d5e86#site=1548
Saddle Mountain State Natural Area,OR,-123.75,45.91,https://gis.audubon.org/portal/apps/dashboards/1742bc47f980490da9c23e23dc4d5e86#site=3714
Alamosa and Monte Vista National Wildlife Refuge Complex,CO,-105.75,37.4,https://gis.audubon.org/portal/apps/dashboards/1742bc47f980490da9c23e23dc4d5e86#site=462
Randall Davey Audubon Center/TNC Santa Fe Preserve,NM,-105.8883,35.6897,https://gis.audubon.org/portal/apps/dashboards/1742bc47f980490da9c23e23dc4d5e86#site=685
Warner Basin + ACEC,OR,-119.85111,42.45,https://gis.audubon.org/portal/apps/dashboards/1742bc47f980490da9c23e23dc4d5e86#site=3895
Coquille Valley,OR,-124.2298,43.1758,https://gis.audubon.org/portal/apps/dashboards/1742bc47f980490da9c23e23dc4d5e86#site=3897
Silvies River Floodplain,OR,-118.942,43.487,https://gis.audubon.org/portal/apps/dashboards/1742bc47f980490da9c23e23dc4d5e86#site=3898
Red Hills Region,KS,-98.35,37.16,https://gis.audubon.org/portal/apps/dashboards/1742bc47f980490da9c23e23dc4d5e86#site=4338
Caja del Rio,NM,-106.16667,35.68333,https://gis.audubon.org/portal/apps/dashboards/1742bc47f980490da9c23e23dc4d5e86#site=610
John Redmond Reservoir & Flint Hills National Wildlife Refuge,KS,-95.49,38.15,https://gis.audubon.org/portal/apps/dashboards/1742bc47f980490da9c23e23dc4d5e86#site=2627
Kirwin National Wildlife Refuge,KS,-99.1,39.39,https://gis.audubon.org/portal/apps/dashboards/1742bc47f980490da9c23e23dc4d5e86#site=2628
Marais des Cygnes Wildlife Area & National Wildlife Refuge,KS,-94.75,32.28,https://gis.audubon.org/portal/apps/dashboards/1742bc47f980490da9c23e23dc4d5e86#site=4258
Pueblo Reservoir State Park and State Wildlife Area and Valco State Wildlife Area,CO,-104.75,38.23333,https://gis.audubon.org/portal/apps/dashboards/1742bc47f980490da9c23e23dc4d5e86#site=498
Arapaho National Wildlife Refuge,CO,-106.17,40.37,https://gis.audubon.org/portal/apps/dashboards/1742bc47f980490da9c23e23dc4d5e86#site=3292
Mittry Lake State Wildlife Area IBA,AZ,-114.4601339,32.83830897,https://gis.audubon.org/portal/apps/dashboards/1742bc47f980490da9c23e23dc4d5e86#site=907
DeSoto National Wildlife Refuge,NE,-96.013,41.5158,https://gis.audubon.org/portal/apps/dashboards/1742bc47f980490da9c23e23dc4d5e86#site=3734
"Rattlesnake Springs/ 
Washington Ranch",NM,-104.4717,32.11,https://gis.audubon.org/portal/apps/dashboards/1742bc47f980490da9c23e23dc4d5e86#site=686
Niobrara Valley Preserve,NE,-100.0305,42.7854,https://gis.audubon.org/portal/apps/dashboards/1742bc47f980490da9c23e23dc4d5e86#site=3728
Calamus Reservoir State Recreation Area,NE,-99.28328,41.87433,https://gis.audubon.org/portal/apps/dashboards/1742bc47f980490da9c23e23dc4d5e86#site=2102
Niobrara State Park,NE,-98.06724,42.74998,https://gis.audubon.org/portal/apps/dashboards/1742bc47f980490da9c23e23dc4d5e86#site=2134
Nature Conservancy Love Creek Preserve,TX,-99.44751,29.79254,https://gis.audubon.org/portal/apps/dashboards/1742bc47f980490da9c23e23dc4d5e86#site=3338
"Bosque del Apache 
National Wildlife Refuge",NM,-106.89068,33.80468,https://gis.audubon.org/portal/apps/dashboards/1742bc47f980490da9c23e23dc4d5e86#site=567
Valles Caldera/Jemez Mountains,NM,-106.4869,35.8319,https://gis.audubon.org/portal/apps/dashboards/1742bc47f980490da9c23e23dc4d5e86#site=1973
Upper Little Colorado River Watershed IBA,AZ,-109.4510082,34.03815731,https://gis.audubon.org/portal/apps/dashboards/1742bc47f980490da9c23e23dc4d5e86#site=2291
Gila-Cliff Area,NM,-108.56667,32.96667,https://gis.audubon.org/portal/apps/dashboards/1742bc47f980490da9c23e23dc4d5e86#site=619
Huachuca Mountains IBA,AZ,-110.3856742,31.43646646,https://gis.audubon.org/portal/apps/dashboards/1742bc47f980490da9c23e23dc4d5e86#site=902
Lower Oak Creek IBA,AZ,-111.8713246,34.79769401,https://gis.audubon.org/portal/apps/dashboards/1742bc47f980490da9c23e23dc4d5e86#site=1236
Reed Island/ Steigerwald Lake,WA,-122.31667,45.55,https://gis.audubon.org/portal/apps/dashboards/1742bc47f980490da9c23e23dc4d5e86#site=290
Boyce Thompson Arboretum/Arnett-Queen Creeks IBA,AZ,-111.1568388,33.26529666,https://gis.audubon.org/portal/apps/dashboards/1742bc47f980490da9c23e23dc4d5e86#site=1235
Whitewater Draw State Wildlife Area IBA,AZ,-109.7248774,31.56784051,https://gis.audubon.org/portal/apps/dashboards/1742bc47f980490da9c23e23dc4d5e86#site=3477
San Rafael Grasslands IBA,AZ,-110.582601,31.40409245,https://gis.audubon.org/portal/apps/dashboards/1742bc47f980490da9c23e23dc4d5e86#site=2301
Willcox Playa/Cochise Lakes IBA,AZ,-109.8456854,32.15060991,https://gis.audubon.org/portal/apps/dashboards/1742bc47f980490da9c23e23dc4d5e86#site=2294
"Bitter Lake 
National Wildlife Refuge",NM,-104.40382,33.45854,https://gis.audubon.org/portal/apps/dashboards/1742bc47f980490da9c23e23dc4d5e86#site=566
Bandelier National Monument,NM,-106.2706,35.77917,https://gis.audubon.org/portal/apps/dashboards/1742bc47f980490da9c23e23dc4d5e86#site=605
"Elephant Butte Lake 
State Park",NM,-107.19487,33.19272,https://gis.audubon.org/portal/apps/dashboards/1742bc47f980490da9c23e23dc4d5e86#site=617
Flint Hills Region,KS,-96.504,38.262,https://gis.audubon.org/portal/apps/dashboards/1742bc47f980490da9c23e23dc4d5e86#site=3975
Hondo Valley,NM,-105.26667,33.38333,https://gis.audubon.org/portal/apps/dashboards/1742bc47f980490da9c23e23dc4d5e86#site=623
Anderson Mesa IBA,AZ,-111.3337054,34.92895083,https://gis.audubon.org/portal/apps/dashboards/1742bc47f980490da9c23e23dc4d5e86#site=1229
Imperial National Wildlife Refuge IBA,AZ,-114.6135165,33.06908179,https://gis.audubon.org/portal/apps/dashboards/1742bc47f980490da9c23e23dc4d5e86#site=3443
Six-Mile Dam,NM,-104.21667,32.41667,https://gis.audubon.org/portal/apps/dashboards/1742bc47f980490da9c23e23dc4d5e86#site=690
Bosque Redondo,NM,-104.2136,34.4325,https://gis.audubon.org/portal/apps/dashboards/1742bc47f980490da9c23e23dc4d5e86#site=607
Katy Prairie Conservancy,TX,-95.87861,29.92388,https://gis.audubon.org/portal/apps/dashboards/1742bc47f980490da9c23e23dc4d5e86#site=3968
Slate Creek Wildlife Area,KS,-97.21111,37.18472,https://gis.audubon.org/portal/apps/dashboards/1742bc47f980490da9c23e23dc4d5e86#site=4298
Columbia National Wildlife Refuge,WA,-119.25,46.91667,https://gis.audubon.org/portal/apps/dashboards/1742bc47f980490da9c23e23dc4d5e86#site=301
Sonoran Desert Borderlands IBA,AZ,-113.2450866,32.20208058,https://gis.audubon.org/portal/apps/dashboards/1742bc47f980490da9c23e23dc4d5e86#site=2202
San Pedro Riparian National Conservation Area IBA,AZ,-110.164733,31.6187028,https://gis.audubon.org/portal/apps/dashboards/1742bc47f980490da9c23e23dc4d5e86#site=901
Blackfoot Valley,MT,-113.0381,46.9542,https://gis.audubon.org/portal/apps/dashboards/1742bc47f980490da9c23e23dc4d5e86#site=2787
Upper Verde River Wildlife Area IBA,AZ,-112.4049907,34.86891073,https://gis.audubon.org/portal/apps/dashboards/1742bc47f980490da9c23e23dc4d5e86#site=3444
Carpenter Ranch/ Yampa River Preserve,CO,-107.18333,40.5,https://gis.audubon.org/portal/apps/dashboards/1742bc47f980490da9c23e23dc4d5e86#site=456
Cave Creek Ecosystem IBA,AZ,-111.9323584,33.91923748,https://gis.audubon.org/portal/apps/dashboards/1742bc47f980490da9c23e23dc4d5e86#site=1239
Havasu National Wildlife Refuge IBA,AZ,-114.4571658,34.68488098,https://gis.audubon.org/portal/apps/dashboards/1742bc47f980490da9c23e23dc4d5e86#site=2315
Sonoita Creek SNA/Patagonia Lake IBA,AZ,-110.9031219,31.48780725,https://gis.audubon.org/portal/apps/dashboards/1742bc47f980490da9c23e23dc4d5e86#site=2298
Salt-Verde Ecosystem IBA,AZ,-111.6734123,34.03514866,https://gis.audubon.org/portal/apps/dashboards/1742bc47f980490da9c23e23dc4d5e86#site=2288
Clayton Lake State Park,NM,-103.29972,36.57574,https://gis.audubon.org/portal/apps/dashboards/1742bc47f980490da9c23e23dc4d5e86#site=614
Tuzigoot IBA,AZ,-112.0273117,34.76826762,https://gis.audubon.org/portal/apps/dashboards/1742bc47f980490da9c23e23dc4d5e86#site=2290
Bill Williams River NWR IBA,AZ,-114.0460733,34.27634124,https://gis.audubon.org/portal/apps/dashboards/1742bc47f980490da9c23e23dc4d5e86#site=1240
"Percha SP/Caballo Lake SP/
Las Palomas",NM,-107.30653,32.86838,https://gis.audubon.org/portal/apps/dashboards/1742bc47f980490da9c23e23dc4d5e86#site=680
Rocky Mountain National Park,CO,-105.66667,40.38333,https://gis.audubon.org/portal/apps/dashboards/1742bc47f980490da9c23e23dc4d5e86#site=472
Grand Canyon National Park IBA,AZ,-112.1418675,36.18491193,https://gis.audubon.org/portal/apps/dashboards/1742bc47f980490da9c23e23dc4d5e86#site=905
Mud Lake Wildlife Management Area,ID,-112.41667,43.9,https://gis.audubon.org/portal/apps/dashboards/1742bc47f980490da9c23e23dc4d5e86#site=597
Bear Lake National Wildlife Refuge,ID,-111.31667,42.18333,https://gis.audubon.org/portal/apps/dashboards/1742bc47f980490da9c23e23dc4d5e86#site=4
Cedar River Watershed,WA,-121.65,47.36667,https://gis.audubon.org/portal/apps/dashboards/1742bc47f980490da9c23e23dc4d5e86#site=294
Turnbull National Wildlife Refuge,WA,-117.56667,47.43333,https://gis.audubon.org/portal/apps/dashboards/1742bc47f980490da9c23e23dc4d5e86#site=355
Umtanum Creek Valley,WA,-120.66667,46.53333,https://gis.audubon.org/portal/apps/dashboards/1742bc47f980490da9c23e23dc4d5e86#site=356
Castlewood Canyon State Park,CO,-104.75,39.33333,https://gis.audubon.org/portal/apps/dashboards/1742bc47f980490da9c23e23dc4d5e86#site=493
Blacks Creek Reservoir,ID,-116.13333,43.45,https://gis.audubon.org/portal/apps/dashboards/1742bc47f980490da9c23e23dc4d5e86#site=536
Spring Mountains,NV,-115.7,36.31,https://gis.audubon.org/portal/apps/dashboards/1742bc47f980490da9c23e23dc4d5e86#site=943
Alfred M. Bailey Bird Nesting Area,CO,-106.16667,39.68333,https://gis.audubon.org/portal/apps/dashboards/1742bc47f980490da9c23e23dc4d5e86#site=473
Goshen Bay - Utah Lake UT07,UT,-111.8884955,40.01201992,https://gis.audubon.org/portal/apps/dashboards/1742bc47f980490da9c23e23dc4d5e86#site=2364
Whitehorse County Park,OR,-123.4601,42.4341,https://gis.audubon.org/portal/apps/dashboards/1742bc47f980490da9c23e23dc4d5e86#site=2572
Sugarite Canyon State Park,NM,-104.3797,36.95556,https://gis.audubon.org/portal/apps/dashboards/1742bc47f980490da9c23e23dc4d5e86#site=1558
Crescent Lake National Wildlife Refuge,NE,-102.355,41.767,https://gis.audubon.org/portal/apps/dashboards/1742bc47f980490da9c23e23dc4d5e86#site=2128
Horse Creek Meadow Wildlife Area,OR,-123.6741,42.4486,https://gis.audubon.org/portal/apps/dashboards/1742bc47f980490da9c23e23dc4d5e86#site=2491
Benton Lake National Wildlife Refuge,MT,-111.3075,47.6775,https://gis.audubon.org/portal/apps/dashboards/1742bc47f980490da9c23e23dc4d5e86#site=2929
Sauvie Island,OR,-122.8038,45.7323,https://gis.audubon.org/portal/apps/dashboards/1742bc47f980490da9c23e23dc4d5e86#site=2516
Madison Valley,MT,-111.7224,45.3474,https://gis.audubon.org/portal/apps/dashboards/1742bc47f980490da9c23e23dc4d5e86#site=2892
Freezout Lake Wildlife Management Area,MT,-112.0554,47.673,https://gis.audubon.org/portal/apps/dashboards/1742bc47f980490da9c23e23dc4d5e86#site=2932
Columbia River Estuary,OR,-123.78021,46.22925,https://gis.audubon.org/portal/apps/dashboards/1742bc47f980490da9c23e23dc4d5e86#site=3458
Deception Pass,WA,-122.64944,48.41722,https://gis.audubon.org/portal/apps/dashboards/1742bc47f980490da9c23e23dc4d5e86#site=3289
Jackson Lake State Park,CO,-104.13333,40.38333,https://gis.audubon.org/portal/apps/dashboards/1742bc47f980490da9c23e23dc4d5e86#site=3291
Las Vegas National Wildlife Refuge,NM,-105.16667,35.5,https://gis.audubon.org/portal/apps/dashboards/1742bc47f980490da9c23e23dc4d5e86#site=598
Patagonia Sonoita Creek TNC Preserve IBA,AZ,-110.7685153,31.53114993,https://gis.audubon.org/portal/apps/dashboards/1742bc47f980490da9c23e23dc4d5e86#site=1241
Southernmost Edwards Plateau,TX,-98.68386316,29.60805547,https://gis.audubon.org/portal/apps/dashboards/1742bc47f980490da9c23e23dc4d5e86#site=4098
